,City,Cloudiness,Country,Date,Humidity,Lat,Lng,Max Temp,Wind Speed
0,abalak,92,NE,1569967244,24,15.46,6.28,90.54,4.88
1,aberdeen,1,US,1569967267,50,46.98,-123.82,62.01,8.05
2,abu samrah,0,SY,1569967294,58,35.3,37.18,67.68,3.02
3,adana,20,TR,1569967102,88,37.0,35.33,70.0,2.24
4,adrar,0,DZ,1569967317,10,27.87,-0.29,91.4,8.05
5,ahipara,33,NZ,1569967220,91,-35.17,173.16,57.99,28.03
6,ahuimanu,75,US,1569967228,62,21.44,-157.84,87.8,14.99
7,airai,0,TL,1569967280,71,-8.93,125.41,69.5,3.69
8,aklavik,75,CA,1569967308,61,68.22,-135.01,48.2,5.82
9,albany,75,US,1569967171,65,42.65,-73.75,78.01,9.17
10,alice springs,50,AU,1569967235,24,-23.7,133.88,73.4,3.36
11,almaznyy,40,RU,1569967326,82,48.03,40.04,57.2,6.71
12,alofi,40,NU,1569967215,65,-19.06,-169.92,80.6,11.41
13,along,100,IN,1569967281,97,28.17,94.8,55.61,1.63
14,alta floresta,20,BR,1569967249,58,-9.87,-56.08,87.8,3.36
15,ambilobe,0,MG,1569967330,73,-13.19,49.05,75.35,13.89
16,ambon,90,FR,1569967255,93,47.55,-2.56,61.0,8.05
17,ancud,0,CL,1569967326,75,-41.87,-73.83,44.6,2.24
18,anloga,20,GH,1569967275,88,5.79,0.9,78.8,10.29
19,arraial do cabo,0,BR,1569967226,68,-22.97,-42.02,71.6,19.46
20,aswan,0,EG,1569967295,17,24.09,32.9,82.4,12.75
21,atambua,0,ID,1569967245,76,-9.11,124.89,76.95,7.67
22,atuona,22,PF,1569967149,78,-9.8,-139.03,79.33,15.48
23,auki,0,NG,1569967260,81,12.18,6.51,76.97,7.72
24,aurangabad,20,IN,1569967333,83,19.87,75.33,75.2,3.36
25,avarua,0,CK,1569967249,60,-21.21,-159.78,75.2,13.87
26,ayagoz,0,KZ,1569967284,55,47.96,80.43,29.49,18.23
27,aykhal,90,RU,1569967337,100,65.95,111.51,19.4,4.47
28,ayr,17,AU,1569967214,74,-19.58,147.4,75.99,3.0
29,babushkin,100,RU,1569967257,61,51.72,105.86,37.59,7.38
30,babynino,24,RU,1569967283,87,54.39,35.75,46.4,6.71
31,badiraguato,40,MX,1569967322,49,25.36,-107.55,91.4,6.8
32,bahia blanca,0,AR,1569967219,45,-38.72,-62.27,55.52,13.94
33,bakaly,100,RU,1569967273,64,55.18,53.8,51.72,19.06
34,bakhmach,66,UA,1569967328,80,51.18,32.81,48.06,6.67
35,balabac,100,PH,1569967254,76,7.99,117.06,80.01,2.91
36,ballina,20,IE,1569967315,81,54.11,-9.15,51.01,4.7
37,bambanglipuro,96,ID,1569967220,90,-7.95,110.28,74.94,11.07
38,bambous virieux,75,MU,1569967217,88,-20.34,57.76,73.0,8.05
39,banda aceh,100,ID,1569967157,70,5.56,95.32,81.94,2.44
40,bandarbeyla,18,SO,1569967297,83,9.49,50.81,75.03,5.84
41,barao de melgaco,20,BR,1569967332,25,-16.19,-55.97,98.6,8.05
42,barra,40,GM,1569967303,83,13.49,-16.54,82.4,6.93
43,barrow,47,AR,1569967199,51,-38.31,-60.23,53.79,8.55
44,baruun-urt,99,MN,1569967276,86,46.68,113.28,39.37,19.62
45,batagay-alyta,59,RU,1569967212,74,67.8,130.41,5.85,7.2
46,batemans bay,0,AU,1569967338,96,-35.71,150.18,60.01,1.63
47,baykit,100,RU,1569967311,96,61.68,96.39,26.59,4.65
48,bell ville,99,AR,1569967329,39,-32.63,-62.69,63.0,8.01
49,bellmead,40,US,1569967234,36,31.59,-97.11,95.0,11.41
50,beloha,25,MG,1569967219,80,-25.17,45.06,69.29,7.52
51,berdigestyakh,88,RU,1569967326,87,62.1,126.7,24.61,8.88
52,berlevag,40,NO,1569967273,74,70.86,29.09,35.6,19.46
53,beroroha,20,MG,1569967336,56,-21.68,45.17,76.86,7.23
54,bethel,1,US,1569967004,75,60.79,-161.76,44.6,9.17
55,biak,59,ID,1569967330,98,-0.91,122.88,60.81,3.09
56,big rapids,75,US,1569967260,94,43.7,-85.48,71.01,3.36
57,bihoro,0,JP,1569967259,85,43.75,144.14,53.91,4.9
58,bilibino,100,RU,1569967288,95,68.06,166.44,16.38,3.27
59,bilma,48,NE,1569967327,14,18.69,12.92,91.35,8.43
60,bluff,2,AU,1569967202,77,-23.58,149.07,64.98,14.47
61,bobcaygeon,75,CA,1569967314,100,44.54,-78.55,73.4,8.05
62,bodmin,75,GB,1569967221,93,50.47,-4.72,60.01,16.11
63,boende,100,CD,1569967295,89,-0.28,20.88,73.46,2.28
64,booue,97,GA,1569967279,87,-0.09,11.94,72.35,2.26
65,borogontsy,8,RU,1569967253,84,62.67,131.17,23.31,10.25
66,boulder,90,US,1569967203,93,40.02,-105.27,51.01,7.72
67,boyuibe,67,BO,1569967142,34,-20.43,-63.28,95.0,11.41
68,bredasdorp,100,ZA,1569967228,76,-34.53,20.04,60.01,4.7
69,bredy,58,RU,1569967330,66,52.43,60.33,40.18,10.6
70,bria,100,CF,1569967324,94,6.54,21.99,69.75,1.66
71,broken hill,30,AU,1569967334,18,-31.97,141.45,59.0,9.17
72,bubaque,18,GW,1569967238,83,11.28,-15.83,81.27,13.98
73,busko-zdroj,22,PL,1569967271,63,50.47,20.72,63.0,4.0
74,busselton,77,AU,1569967213,71,-33.64,115.35,46.0,2.8
75,bustamante,0,MX,1569967299,46,26.53,-100.51,87.3,18.1
76,butaritari,100,KI,1569967218,62,3.07,172.79,85.68,10.56
77,cabedelo,20,BR,1569967277,74,-6.97,-34.84,78.8,8.05
78,cabo san lucas,75,MX,1569966947,61,22.89,-109.91,86.0,16.11
79,camacupa,66,AO,1569967300,49,-12.02,17.48,60.32,3.65
80,camopi,100,GF,1569967304,51,3.17,-52.33,86.94,3.4
81,cap-aux-meules,90,CA,1569967335,65,47.38,-61.86,44.6,6.93
82,cape town,0,ZA,1569967025,72,-33.93,18.42,62.01,4.7
83,carauari,100,BR,1569967296,50,-4.88,-66.9,90.94,1.14
84,carberry,75,CA,1569967268,77,49.87,-99.36,42.8,9.17
85,cardenas,90,MX,1569967317,61,27.62,-110.24,82.0,3.36
86,carnarvon,8,ZA,1569967242,19,-30.97,22.13,54.26,8.75
87,carora,100,VE,1569967330,84,10.17,-70.08,79.1,1.39
88,casper,90,US,1569967240,100,42.87,-106.31,39.99,14.99
89,castro,0,CL,1569967227,75,-42.48,-73.76,44.6,2.24
90,cerro punta,40,PA,1569967331,74,8.85,-82.57,80.6,4.7
91,champerico,75,MX,1569967226,78,16.38,-93.6,77.0,6.93
92,chapayeve,0,UA,1569967297,87,49.37,35.87,50.0,4.47
93,chara,0,GR,1569967238,93,39.42,22.43,68.0,5.82
94,cheremukhovo,100,RU,1569967267,92,56.23,46.23,55.07,10.02
95,cherskiy,93,RU,1569967226,87,68.75,161.3,22.83,7.2
96,chilca,40,PE,1569967303,36,-13.22,-72.34,62.6,3.36
97,chimoio,90,MZ,1569967333,100,-19.11,33.48,60.8,6.06
98,chokurdakh,0,RU,1569967201,80,70.62,147.9,19.89,17.05
99,chulman,24,RU,1569967315,93,56.84,124.9,16.82,3.65
100,chuy,100,UY,1569967290,95,-33.69,-53.46,64.89,10.0
101,cidreira,24,BR,1569967201,66,-30.17,-50.22,73.41,13.91
102,clyde river,90,CA,1569967227,100,70.47,-68.59,33.8,10.29
103,coahuayana,57,MX,1569967255,71,18.62,-100.35,82.44,2.55
104,cockburn town,84,TC,1569967039,63,21.46,-71.14,84.33,2.48
105,cockeysville,1,US,1569967310,54,39.48,-76.65,86.0,9.17
106,codrington,40,AU,1569967233,93,-28.95,153.24,66.99,5.82
107,coihaique,75,CL,1569967296,52,-45.58,-72.07,44.6,5.82
108,college,75,US,1569967293,86,64.86,-147.8,48.0,5.35
109,constitucion,90,MX,1569967250,43,23.99,-104.67,71.6,5.82
110,copiapo,20,CL,1569967006,62,-27.37,-70.33,59.0,18.34
111,coquimbo,75,CL,1569967240,58,-29.95,-71.34,57.2,11.41
112,cordenons,20,IT,1569967320,83,45.99,12.71,69.8,4.7
113,cururupu,100,BR,1569967326,75,-1.82,-44.87,77.85,4.83
114,dan khun thot,0,TH,1569967243,88,15.21,101.77,73.89,3.04
115,daru,100,PG,1569967286,93,-9.07,143.21,75.05,9.37
116,dengzhou,73,CN,1569967250,48,32.69,112.08,72.24,4.21
117,dharmabad,68,IN,1569967276,83,18.89,77.84,74.15,4.92
118,dhidhdhoo,0,MV,1569967247,73,6.88,73.1,82.39,6.93
119,diapaga,93,BF,1569967314,81,12.07,1.79,77.84,1.03
120,dikson,6,RU,1569967282,85,73.51,80.55,28.39,19.39
121,dingle,100,PH,1569967253,87,11.0,122.67,74.6,1.9
122,dryden,75,CA,1569967234,81,49.79,-92.84,42.8,5.82
123,dunedin,81,NZ,1569967235,68,-45.87,170.5,48.99,28.01
124,dwarka,20,IN,1569967260,88,28.58,77.04,77.0,4.7
125,east london,53,ZA,1569967218,87,-33.02,27.91,54.67,5.19
126,erzin,0,TR,1569967270,82,36.95,36.2,75.2,1.66
127,esperance,90,AU,1569967264,100,-33.86,121.89,53.6,4.7
128,eureka,20,US,1569967143,67,40.8,-124.16,64.99,14.99
129,evensk,0,RU,1569967256,56,61.92,159.24,27.99,6.44
130,evinayong,100,GQ,1569967265,99,1.44,10.55,67.76,3.0
131,eyemouth,87,GB,1569967329,86,55.87,-2.09,46.0,13.0
132,eyl,12,SO,1569967264,96,7.98,49.82,71.73,4.45
133,faanui,93,PF,1569967255,78,-16.48,-151.75,76.14,19.46
134,fairbanks,75,US,1569966969,86,64.84,-147.72,46.99,5.35
135,farafangana,100,MG,1569967334,95,-22.82,47.83,71.68,2.59
136,flin flon,20,CA,1569967263,45,54.77,-101.88,42.8,5.82
137,flinders,0,AU,1569967298,76,-34.58,150.85,66.99,8.05
138,florianopolis,20,BR,1569967151,78,-27.6,-48.55,73.99,20.8
139,fort nelson,20,CA,1569967270,42,58.81,-122.69,62.6,3.36
140,fort portal,3,UG,1569967251,92,0.66,30.28,50.51,4.68
141,fortuna,20,US,1569967314,67,40.6,-124.16,68.0,14.99
142,french harbor,40,HN,1569967312,66,16.35,-86.43,86.0,5.82
143,frolovo,31,RU,1569967241,89,49.76,43.65,55.99,7.38
144,fukue,75,JP,1569967221,78,35.03,136.69,75.2,3.2
145,gairo,79,TZ,1569967264,82,-6.14,36.87,68.73,6.76
146,gao,74,ML,1569967289,31,16.28,-0.04,93.19,19.95
147,garbolovo,75,RU,1569967297,100,60.34,30.5,44.01,6.71
148,gardez,1,AF,1569967336,43,33.6,69.22,55.7,3.4
149,garmsar,0,IR,1569967280,44,35.22,52.34,56.61,3.6
150,gat,84,SN,1569967243,88,14.69,-16.54,84.2,3.36
151,gazanjyk,0,TM,1569967287,22,39.24,55.52,62.59,19.93
152,georgetown,40,GY,1569967235,74,6.8,-58.16,87.8,9.17
153,geraldton,75,CA,1569967212,93,49.72,-86.95,42.8,8.05
154,gibara,75,CU,1569967264,78,21.11,-76.13,82.4,3.36
155,gijon,20,ES,1569967056,77,43.54,-5.66,66.0,18.34
156,gimli,95,CA,1569967325,73,50.63,-96.99,43.0,4.0
157,goderich,100,CA,1569967313,89,43.74,-81.71,70.0,14.18
158,grand gaube,75,MU,1569967231,88,-20.01,57.66,73.0,8.05
159,grindavik,90,IS,1569967261,93,63.84,-22.43,46.4,8.05
160,guatire,40,VE,1569967232,83,10.47,-66.54,82.99,4.7
161,guaymas,90,MX,1569967246,70,27.92,-110.9,84.2,8.05
162,guerrero negro,0,MX,1569967287,78,27.97,-114.04,66.73,14.58
163,guymon,75,US,1569967321,100,36.68,-101.48,71.6,13.87
164,haines junction,100,CA,1569967319,87,60.75,-137.51,42.38,9.42
165,halol,71,IN,1569967212,87,22.51,73.47,77.08,5.84
166,hambantota,0,LK,1569967242,100,6.12,81.12,75.2,2.24
167,hamilton,75,CA,1569967217,94,43.26,-79.87,72.0,11.41
168,hamina,0,FI,1569967337,70,60.57,27.2,32.0,2.24
169,harper,75,US,1569967276,38,30.3,-99.24,91.4,10.29
170,hasaki,75,JP,1569967272,100,35.73,140.83,66.2,4.7
171,hauterive,90,CA,1569967288,93,49.18,-68.27,39.2,14.99
172,havre-saint-pierre,90,CA,1569967243,60,50.23,-63.6,41.0,5.82
173,hay river,40,CA,1569967214,53,60.82,-115.79,50.0,5.82
174,hermanus,100,ZA,1569967225,76,-34.42,19.24,61.0,4.0
175,hilo,75,US,1569967223,62,19.71,-155.08,84.2,5.82
176,hithadhoo,84,MV,1569967211,78,-0.6,73.08,81.83,17.34
177,hobart,40,AU,1569967043,76,-42.88,147.33,48.99,9.17
178,hobyo,0,SO,1569967266,90,5.35,48.53,76.16,11.83
179,hofn,24,IS,1569967256,71,64.25,-15.21,22.67,4.61
180,honningsvag,99,NO,1569967284,64,70.98,25.97,40.65,25.14
181,hornepayne,100,CA,1569967334,89,49.22,-84.78,45.98,5.5
182,hualmay,54,PE,1569967236,90,-11.1,-77.61,62.07,14.67
183,huanren,0,CN,1569967298,94,41.26,125.37,52.74,3.29
184,huarmey,63,PE,1569967322,90,-10.07,-78.15,62.12,14.09
185,husavik,100,CA,1569967271,73,50.56,-96.99,45.0,4.0
186,hwange,33,ZW,1569967328,30,-18.35,26.5,65.87,10.92
187,ilulissat,40,GL,1569967263,42,69.22,-51.1,46.4,17.22
188,imbituba,20,BR,1569967174,78,-28.24,-48.67,71.6,20.8
189,indaial,75,BR,1569967320,88,-26.9,-49.24,72.0,11.41
190,iqaluit,75,CA,1569967262,68,63.75,-68.52,39.2,2.24
191,iquitos,75,PE,1569967284,88,-3.75,-73.25,73.4,14.99
192,isangel,75,VU,1569967222,69,-19.55,169.27,77.0,11.41
193,ishigaki,75,JP,1569967241,94,24.34,124.16,78.8,11.41
194,itarema,11,BR,1569967242,72,-2.92,-39.92,76.92,11.41
195,iwaki,75,JP,1569967293,100,37.05,140.89,63.0,3.36
196,ixtapa,90,MX,1569967206,70,20.71,-105.21,84.2,13.87
197,jacksonville beach,40,US,1569967305,94,30.29,-81.39,82.99,6.93
198,jambi,100,ID,1569967267,89,-1.6,103.62,72.18,2.82
199,jamestown,0,AU,1569967224,24,-33.21,138.6,65.0,11.34
200,javanrud,0,IR,1569967237,32,34.8,46.49,55.4,2.24
201,jeremoabo,16,BR,1569967270,59,-10.08,-38.34,77.15,13.38
202,jiblah,100,YE,1569967275,79,13.92,44.15,67.56,1.74
203,junction city,20,US,1569967259,52,39.03,-96.83,89.6,18.34
204,juneau,90,US,1569967232,81,58.3,-134.42,51.8,13.87
205,kabelvag,0,NO,1569967314,56,68.21,14.48,44.6,14.99
206,kabo,100,CF,1569967290,92,7.69,18.62,73.3,3.67
207,kahului,20,US,1569967319,52,20.89,-156.47,89.6,14.99
208,kaihua,0,CN,1569967201,91,29.14,118.41,66.19,1.41
209,kaitangata,86,NZ,1569967230,65,-46.28,169.85,46.0,13.0
210,kanniyakumari,100,IN,1569967219,78,8.08,77.57,80.41,6.85
211,kapaa,40,US,1569967029,66,22.08,-159.32,86.0,14.99
212,kathmandu,75,NP,1569967217,93,27.71,85.32,66.2,2.24
213,katsuura,75,JP,1569967294,94,33.93,134.5,77.0,3.36
214,kattivakkam,20,IN,1569967318,83,13.22,80.32,82.4,6.93
215,kavaratti,12,IN,1569967297,70,10.57,72.64,81.04,3.89
216,kavieng,52,PG,1569967338,75,-2.57,150.8,81.38,4.56
217,kawalu,99,ID,1569967266,88,-7.38,108.21,66.82,2.93
218,keffi,20,NG,1569967253,74,8.85,7.88,78.8,3.36
219,kenora,75,CA,1569966993,80,49.76,-94.48,42.8,5.82
220,key largo,75,US,1569967309,78,25.09,-80.45,84.2,19.46
221,khandyga,100,RU,1569967300,97,62.65,135.58,28.68,6.26
222,kharitonovo,100,RU,1569967272,92,61.4,47.5,53.39,11.25
223,khatanga,1,RU,1569967229,89,71.98,102.47,18.38,1.23
224,kibakwe,95,TZ,1569967332,72,-6.71,36.37,71.09,7.38
225,kimbe,78,PG,1569967306,87,-5.56,150.15,74.79,1.95
226,kindu,100,CD,1569967301,88,-2.95,25.92,72.9,2.19
227,kisangani,20,CD,1569967273,97,0.52,25.21,70.35,2.08
228,kiunga,99,PG,1569967313,99,-6.12,141.3,73.08,1.25
229,klaksvik,73,FO,1569967224,81,62.23,-6.59,44.6,19.46
230,kochevo,17,BG,1569967310,72,42.1,24.92,66.2,10.29
231,kodiak,75,US,1569967200,58,39.95,-94.76,89.6,13.87
232,kommunisticheskiy,100,RU,1569967246,89,61.68,64.48,46.19,10.76
233,komsomolskiy,100,RU,1569967278,98,67.55,63.78,38.51,8.72
234,koulamoutou,100,GA,1569967328,91,-1.13,12.47,70.26,2.21
235,kruisfontein,0,ZA,1569967225,93,-34.0,24.73,52.82,5.66
236,kuala perlis,20,MY,1569967271,94,6.4,100.14,77.0,8.97
237,kuandian,0,CN,1569967277,91,40.73,124.78,54.9,2.28
238,kurumkan,5,RU,1569967261,90,54.33,110.32,21.41,2.33
239,kushva,100,RU,1569967272,81,58.28,59.76,44.48,13.98
240,kutum,61,SD,1569967210,59,14.2,24.66,75.08,16.15
241,kviteseid,24,NO,1569967285,81,59.4,8.49,39.0,4.76
242,la joya,90,US,1569967293,62,26.25,-98.48,89.6,13.87
243,la ronge,90,CA,1569967248,60,55.1,-105.3,41.0,5.82
244,labuhan,100,ID,1569967316,88,-2.54,115.51,73.32,0.49
245,lac du bonnet,100,CA,1569967335,73,50.25,-96.06,42.01,4.0
246,lagoa,0,PT,1569967278,68,37.14,-8.45,70.0,9.17
247,lancaster,1,US,1569967261,61,40.04,-76.31,87.01,4.7
248,lavrentiya,100,RU,1569967318,99,65.58,-170.99,38.54,6.62
249,lazaro cardenas,75,MX,1569967328,48,28.39,-105.62,84.2,12.75
250,lebu,75,ET,1569967214,87,8.96,38.73,57.2,2.24
251,leningradskiy,100,RU,1569967228,98,69.38,178.42,34.83,17.65
252,ler,90,NO,1569967336,100,63.2,10.3,42.8,4.23
253,lermontovka,0,RU,1569967323,91,47.15,134.34,58.04,12.24
254,les cayes,54,HT,1569967313,74,18.19,-73.75,83.81,9.93
255,lieto,75,FI,1569967250,87,60.5,22.46,44.01,5.82
256,lilongwe,8,MW,1569967339,62,-13.97,33.79,67.59,3.78
257,lima,75,PE,1569967152,77,-12.06,-77.04,66.2,9.17
258,linxia,100,CN,1569967304,50,35.6,103.21,52.53,3.65
259,lismore,40,AU,1569967132,93,-28.81,153.28,66.99,5.82
260,livingstone,88,ZW,1569967325,11,-17.85,25.86,69.03,9.91
261,lofos,0,GR,1569967287,77,40.24,22.38,72.0,5.82
262,lohja,75,FI,1569967309,86,60.25,24.07,42.01,8.05
263,loikaw,100,MM,1569967237,95,19.67,97.21,61.74,1.28
264,lompoc,1,US,1569967200,31,34.64,-120.46,75.0,14.99
265,longyearbyen,20,NO,1569967157,79,78.22,15.63,23.0,1.12
266,lopandino,85,RU,1569967296,88,52.46,34.82,45.58,5.93
267,lorengau,88,PG,1569967262,75,-2.02,147.27,79.62,1.23
268,los llanos de aridane,6,ES,1569967008,88,28.66,-17.92,82.0,12.75
269,luau,100,CD,1569967332,84,-10.7,22.23,68.96,4.27
270,luderitz,0,NA,1569967234,63,-26.65,15.16,60.8,10.29
271,lumeje,100,AO,1569967303,57,-11.56,20.78,72.63,7.96
272,maceio,0,BR,1569967212,88,-9.67,-35.74,73.4,4.7
273,magadan,100,RU,1569967240,63,59.56,150.8,37.46,13.8
274,magistralnyy,0,RU,1569967291,87,56.17,107.45,24.32,2.73
275,mahebourg,75,MU,1569967232,88,-20.41,57.7,73.0,8.05
276,makakilo city,40,US,1569967066,55,21.35,-158.09,87.8,10.29
277,maldonado,90,UY,1569967046,100,-34.91,-54.96,55.4,18.34
278,mananjary,85,MG,1569967306,66,-19.16,46.8,72.87,2.17
279,maniitsoq,0,GL,1569967275,76,65.42,-52.9,39.46,6.02
280,mao,40,DO,1569967302,100,19.55,-71.08,86.0,9.17
281,mar del plata,100,AR,1569967211,22,-46.43,-67.52,49.68,12.66
282,marsta,86,SE,1569967216,70,59.93,17.59,46.4,9.17
283,maryville,1,US,1569966998,39,35.76,-83.97,95.0,4.23
284,mascota,90,MX,1569967295,70,20.53,-104.79,84.2,13.87
285,masyaf,0,SY,1569967263,88,35.06,36.34,71.6,2.24
286,matagami,85,NG,1569967289,96,9.67,8.4,69.81,2.71
287,matamoros,75,US,1569967300,62,25.87,-97.51,91.4,8.05
288,mataura,67,NZ,1569967200,73,-46.19,168.86,46.99,18.99
289,mattawa,90,CA,1569967259,91,46.32,-78.7,71.01,6.93
290,meadow lake,90,CA,1569967217,64,54.13,-108.44,39.2,10.29
291,mehamn,44,NO,1569967283,69,71.03,27.85,36.33,19.64
292,melo,100,UY,1569967308,91,-32.37,-54.17,71.7,7.36
293,melville,90,CA,1569967311,90,50.93,-102.81,39.2,2.24
294,menongue,92,AO,1569967251,20,-14.66,17.68,62.77,5.39
295,menzelinsk,20,RU,1569967269,54,55.73,53.11,53.6,15.66
296,merauke,100,ID,1569967291,83,-8.49,140.4,78.92,22.15
297,meulaboh,100,ID,1569967298,75,4.14,96.13,79.56,5.23
298,micheweni,26,TZ,1569967304,86,-4.97,39.83,78.86,3.74
299,mildura,33,AU,1569967299,28,-34.18,142.16,63.0,8.05
300,mishan,0,CN,1569967321,69,45.55,131.88,57.42,5.57
301,mokhsogollokh,0,RU,1569967257,78,61.4,128.95,24.77,9.24
302,monclova,45,MX,1569967327,36,26.9,-101.42,93.99,8.01
303,monroe,1,US,1569967283,58,41.91,-83.4,89.6,12.75
304,monte alegre,43,BR,1569967226,35,-2.0,-54.07,94.47,6.29
305,montepuez,35,MZ,1569967257,76,-13.13,39.0,75.08,7.34
306,moose factory,90,CA,1569967286,93,51.26,-80.61,41.0,4.7
307,moron,42,HT,1569967212,68,18.56,-74.26,83.38,3.36
308,morro bay,1,US,1569967248,59,35.37,-120.85,75.0,13.87
309,mouila,100,GA,1569967200,92,-1.86,11.06,73.52,4.47
310,mount gambier,100,AU,1569967029,41,-37.83,140.78,59.0,11.41
311,mount isa,0,AU,1569967242,14,-20.73,139.49,77.0,11.41
312,mpophomeni,88,ZA,1569967222,86,-29.57,30.18,57.0,1.74
313,mtwara,49,TZ,1569967310,99,-10.28,40.18,72.72,3.42
314,mugur-aksy,91,RU,1569967296,87,50.38,90.44,9.54,4.63
315,muisne,20,EC,1569967292,83,0.61,-80.02,80.6,12.75
316,muyezerskiy,100,RU,1569967246,92,63.93,31.65,45.98,18.39
317,nabire,92,ID,1569967289,97,-3.36,135.5,69.09,2.48
318,nago,40,IT,1569967317,82,45.88,10.89,69.8,3.36
319,najran,0,SA,1569967316,39,17.54,44.22,80.6,5.82
320,nalut,0,LY,1569967270,47,31.86,10.98,73.62,9.42
321,nanortalik,100,GL,1569967213,58,60.14,-45.24,45.89,4.65
322,naples,0,IT,1569967027,88,40.84,14.25,71.01,2.24
323,narasannapeta,100,IN,1569967252,90,18.42,84.04,76.99,3.18
324,narsaq,100,GL,1569967266,25,60.91,-46.05,53.6,40.26
325,natal,20,BR,1569967255,78,-5.81,-35.21,78.8,12.75
326,naze,100,NG,1569967240,96,5.43,7.07,73.48,3.0
327,nelson bay,0,AU,1569967254,87,-32.72,152.14,61.0,9.17
328,nemuro,0,JP,1569967259,89,43.32,145.57,60.12,6.71
329,new norfolk,40,AU,1569967011,76,-42.78,147.06,48.99,9.17
330,newport,90,GB,1569967160,87,51.59,-3.0,54.0,17.22
331,neyshabur,0,IR,1569967245,68,36.21,58.79,49.68,1.9
332,nikolskoye,75,RU,1569967267,100,59.7,30.79,44.01,6.71
333,nizwa,74,OM,1569967238,39,22.93,57.53,81.29,2.91
334,nome,75,US,1569967249,52,30.04,-94.42,91.4,11.41
335,norman wells,90,CA,1569967229,58,65.28,-126.83,53.6,6.93
336,north bend,1,US,1569967276,67,43.41,-124.22,62.01,13.87
337,nouadhibou,90,MR,1569967215,93,20.93,-17.03,66.2,17.22
338,nouakchott,0,MR,1569967284,83,18.08,-15.98,80.6,14.99
339,noumea,40,NC,1569967318,64,-22.28,166.46,71.6,20.8
340,novoagansk,100,RU,1569967254,96,61.94,76.66,40.97,11.25
341,nyurba,92,RU,1569967265,93,63.29,118.35,26.61,5.41
342,omsukchan,0,RU,1569967325,82,62.53,155.8,8.55,4.97
343,opotiki,2,NZ,1569967266,63,-38.01,177.29,54.0,5.01
344,opuwo,99,NA,1569967225,50,-18.06,13.84,57.39,3.22
345,oriximina,68,BR,1569967333,49,-1.77,-55.87,92.52,2.01
346,orlik,75,PL,1569967252,93,53.95,17.74,57.0,14.99
347,ortakoy,0,TR,1569967216,44,38.74,34.04,57.2,2.08
348,ostrovnoy,90,RU,1569967322,82,68.05,39.51,35.91,25.12
349,ous,100,RU,1569967238,79,60.91,61.52,49.45,12.82
350,oussouye,40,SN,1569967279,83,12.49,-16.54,84.2,4.7
351,paamiut,100,GL,1569967305,67,61.99,-49.67,43.04,15.95
352,pacific grove,0,US,1569967289,30,36.62,-121.92,72.0,5.82
353,paita,0,PE,1569967246,290,-5.09,-81.11,62.6,20.8
354,panaba,0,MX,1569967245,67,21.28,-88.27,84.77,12.46
355,pangkalanbuun,100,ID,1569967307,94,-2.68,111.62,75.5,0.54
356,pangnirtung,75,CA,1569967235,100,66.15,-65.72,35.6,9.17
357,panguna,100,PG,1569967285,80,-6.32,155.48,79.96,7.14
358,pantai remis,75,MY,1569967307,94,4.46,100.63,75.2,9.33
359,parbhani,26,IN,1569967329,87,19.26,76.77,73.73,7.02
360,paso de los toros,90,UY,1569967247,93,-32.81,-56.52,59.0,16.11
361,pathein,96,MM,1569967333,83,16.78,94.73,80.01,7.29
362,peleduy,52,RU,1569967239,81,59.63,112.75,26.75,4.85
363,penzance,100,GB,1569967327,93,50.12,-5.53,60.01,19.46
364,petropavlovsk-kamchatskiy,20,RU,1569967233,66,53.05,158.65,48.2,11.18
365,pevek,100,RU,1569967218,96,69.7,170.27,31.9,20.27
366,phalodi,0,IN,1569967330,51,27.13,72.36,85.0,12.24
367,phan thiet,86,VN,1569967300,93,10.93,108.1,72.69,2.98
368,piacabucu,3,BR,1569967320,79,-10.41,-36.43,76.27,9.55
369,pilikwe,7,BW,1569967227,82,-22.8,27.19,53.25,12.01
370,pimenta bueno,100,BR,1569967297,88,-11.68,-61.19,73.61,3.74
371,pingshan,78,CN,1569967231,88,28.83,104.35,69.07,0.51
372,pisco,0,PE,1569967227,30,-13.71,-76.2,71.6,17.22
373,pitkyaranta,13,RU,1569967299,68,61.57,31.48,45.69,24.63
374,placido de castro,48,BR,1569967221,41,-10.34,-67.19,92.11,6.46
375,plan-de-cuques,99,FR,1569967230,93,43.35,5.46,73.0,13.87
376,plaster rock,90,CA,1569967288,93,46.91,-67.4,48.2,11.41
377,pokhara,97,NP,1569967317,82,28.21,83.99,50.94,1.45
378,ponta do sol,0,BR,1569967256,48,-20.63,-46.0,76.04,6.62
379,pontes e lacerda,67,BR,1569967334,46,-15.23,-59.33,88.91,11.36
380,port alfred,3,ZA,1569967220,89,-33.59,26.89,57.99,4.0
381,port blair,7,IN,1569967304,77,11.67,92.75,81.33,5.97
382,port elizabeth,1,US,1569967239,51,39.31,-74.98,84.99,9.17
383,port hardy,75,CA,1569967233,76,50.7,-127.42,51.8,4.7
384,port hedland,0,AU,1569967336,49,-20.31,118.58,69.8,5.82
385,port hueneme,1,US,1569967310,52,34.15,-119.2,77.0,11.41
386,port lincoln,0,AU,1569967237,89,-34.72,135.86,58.47,8.46
387,portland,90,US,1569966668,87,43.66,-70.25,62.6,5.82
388,porto nacional,40,BR,1569967234,88,-10.7,-48.41,75.2,3.36
389,porto novo,0,BR,1569967337,53,-23.68,-45.44,75.2,11.41
390,praia,0,BR,1569967245,34,-20.25,-43.81,80.6,10.29
391,prainha,9,BR,1569967272,35,-1.8,-53.48,93.75,4.16
392,praxedis guerrero,90,MX,1569967337,47,31.37,-106.02,82.4,12.75
393,provideniya,75,RU,1569967219,87,64.42,-173.23,46.4,15.66
394,puerto ayora,20,EC,1569967223,57,-0.74,-90.35,78.8,23.04
395,puerto colombia,40,CO,1569967256,88,10.99,-74.96,82.99,4.7
396,puerto escondido,75,MX,1569967272,62,15.86,-97.07,87.8,9.17
397,puerto rico,97,CO,1569967316,88,1.91,-75.15,67.47,3.85
398,punta arenas,20,CL,1569967217,56,-53.16,-70.91,44.6,18.34
399,qaanaaq,100,GL,1569967206,96,77.48,-69.36,33.5,10.4
400,quatre cocos,75,MU,1569967258,88,-20.21,57.76,73.0,8.05
401,quchan,0,IR,1569967237,64,37.11,58.51,45.98,7.94
402,rajpur,100,IN,1569967275,94,26.3,79.68,74.16,4.23
403,raposa,40,PT,1569967332,88,39.11,-8.58,66.99,9.17
404,ribas do rio pardo,76,BR,1569967233,27,-20.45,-53.76,93.37,7.94
405,ribeira grande,100,PT,1569967216,83,38.52,-28.7,72.78,31.88
406,ribeirao das neves,0,BR,1569966996,34,-19.77,-44.09,80.6,10.29
407,rikitea,67,PF,1569967204,80,-23.12,-134.97,68.3,12.91
408,rio grande,20,BR,1569967203,83,-32.03,-52.1,69.8,6.93
409,riyadh,0,SA,1569967028,22,24.63,46.72,86.0,2.24
410,road town,20,VG,1569967173,70,18.42,-64.62,86.0,4.7
411,rocha,100,UY,1569967251,98,-34.48,-54.34,57.37,9.6
412,roebourne,0,AU,1569967301,27,-20.77,117.15,75.75,10.36
413,rundu,92,NA,1569967282,14,-17.91,19.77,69.8,3.36
414,sabha,0,LY,1569967069,23,27.03,14.43,81.04,8.88
415,sai buri,100,TH,1569967280,95,6.7,101.62,72.99,1.19
416,saiha,47,IN,1569967294,99,22.49,92.98,68.53,1.59
417,saint anthony,1,US,1569967258,42,43.97,-111.68,54.0,5.82
418,saint george,0,GR,1569967225,93,39.45,22.34,68.0,5.82
419,saint-georges,100,CA,1569967211,96,46.12,-70.67,59.0,6.24
420,saint-philippe,90,CA,1569967228,93,45.36,-73.48,66.2,11.41
421,sainte-suzanne,100,CH,1569967281,93,47.51,6.77,61.0,11.41
422,sakaraha,18,MG,1569967321,57,-22.91,44.53,72.15,6.96
423,salalah,20,OM,1569967253,78,17.01,54.1,80.6,9.17
424,saldanha,0,PT,1569967267,72,41.42,-6.55,57.93,10.22
425,salym,100,RU,1569967318,90,60.06,71.48,43.74,12.46
426,samarai,100,PG,1569967305,92,-10.62,150.67,75.3,5.48
427,san andres,79,PH,1569967256,90,13.32,122.68,76.02,1.14
428,san cristobal,88,HN,1569967315,70,14.68,-86.92,79.35,2.71
429,san jose,20,HN,1569967192,58,14.25,-87.96,84.2,9.17
430,san patricio,34,PY,1569967260,39,-26.98,-56.83,93.62,6.15
431,san pedro,100,AR,1569967331,45,-33.68,-59.66,63.0,8.01
432,san quintin,98,PH,1569967295,91,17.54,120.52,73.32,3.29
433,santa vitoria do palmar,100,BR,1569967237,95,-33.52,-53.37,66.75,8.23
434,santiago del estero,100,AR,1569967230,27,-27.8,-64.26,72.38,18.23
435,sao felix do xingu,92,BR,1569967294,86,-6.64,-51.99,74.96,3.06
436,sao filipe,77,CV,1569967250,88,14.9,-24.5,78.5,15.35
437,sarab,0,IR,1569967282,31,38.61,44.99,48.37,5.1
438,saskylakh,90,RU,1569967199,96,71.97,114.09,25.49,9.71
439,satwas,99,IN,1569967277,91,22.52,76.76,71.1,6.35
440,savannakhet,0,TH,1569967288,72,16.57,104.76,72.36,1.68
441,sechura,55,PE,1569967292,85,-5.56,-80.82,65.7,13.58
442,selma,8,US,1569967221,27,32.41,-87.02,98.6,4.61
443,seoul,40,KR,1569967215,100,37.57,126.98,71.6,9.17
444,sept-iles,90,CA,1569967048,80,50.2,-66.38,35.6,5.82
445,serafimovskiy,100,RU,1569967281,58,54.42,53.8,50.89,17.05
446,severo-kurilsk,97,RU,1569967312,90,50.68,156.12,46.26,11.61
447,sexsmith,75,CA,1569967281,52,55.35,-118.78,53.01,8.05
448,shache,99,CN,1569967230,34,38.42,77.24,64.7,15.41
449,shakawe,92,BW,1569967295,14,-18.36,21.84,62.57,5.77
450,shaunavon,1,CA,1569967265,90,49.65,-108.41,32.1,8.66
451,shima,75,JP,1569967323,88,34.34,136.82,75.2,3.36
452,shimanovsk,100,RU,1569967245,85,52.0,127.67,42.09,13.38
453,shirokiy,94,RU,1569967299,85,53.87,39.17,46.73,8.7
454,shunyi,0,CN,1569967290,77,40.13,116.65,75.0,4.47
455,shyryayeve,0,UA,1569967308,55,47.38,30.2,56.34,5.03
456,sibolga,100,ID,1569967146,80,1.74,98.78,80.21,9.6
457,silver city,90,US,1569967210,17,32.77,-108.28,75.0,4.7
458,simpang,100,ID,1569967329,96,4.36,96.17,71.41,1.83
459,sindal,0,DK,1569967333,80,57.48,10.2,46.0,3.0
460,sinnamary,54,GF,1569967212,71,5.38,-52.96,82.44,12.03
461,sioux lookout,40,CA,1569967130,87,50.1,-91.92,42.8,5.82
462,sistranda,75,NO,1569967248,100,63.73,8.83,46.99,2.24
463,sitka,100,US,1569967229,94,37.17,-99.65,66.99,14.0
464,slavyanka,100,RU,1569967320,97,42.86,131.39,61.64,1.25
465,soledade,0,BR,1569967247,78,-7.06,-36.37,75.2,14.99
466,solnechnyy,39,RU,1569967324,94,50.72,136.64,50.44,1.63
467,sorland,0,NO,1569967219,70,67.67,12.69,48.26,17.0
468,souillac,75,FR,1569967232,87,45.6,-0.6,62.01,6.93
469,stanghelle,40,NO,1569967286,93,60.55,5.74,46.0,13.87
470,steamboat springs,1,US,1569967203,13,40.48,-106.83,73.4,18.34
471,stepnoye,100,RU,1569967232,98,51.38,46.84,55.99,3.0
472,storforshei,0,NO,1569967241,84,66.4,14.52,37.99,2.24
473,strezhevoy,90,RU,1569967231,93,60.73,77.6,42.8,11.18
474,susanville,40,US,1569967338,35,40.42,-120.65,55.4,6.93
475,tabuk,100,PH,1569967301,95,17.41,121.44,63.47,2.55
476,tagbacan,100,PH,1569967280,76,11.15,125.58,82.88,9.57
477,tagusao,33,PH,1569967316,79,9.19,117.81,79.94,4.07
478,talnakh,75,RU,1569967223,86,69.49,88.39,30.2,17.9
479,taltal,78,CL,1569967302,72,-25.41,-70.49,56.24,4.12
480,taman,40,RU,1569967253,87,45.22,36.72,53.6,4.47
481,taoudenni,0,ML,1569967309,10,22.68,-3.98,95.71,10.67
482,tarakan,99,ID,1569967327,88,3.3,117.63,76.23,5.91
483,tasiilaq,84,GL,1569967221,69,65.61,-37.64,35.6,19.46
484,tautira,40,PF,1569967262,58,-17.73,-149.15,82.4,5.82
485,taybad,0,IR,1569967331,56,34.74,60.78,51.81,4.0
486,terra santa,40,BR,1569967240,35,-2.1,-56.49,94.32,5.12
487,tessalit,0,ML,1569967335,11,20.2,1.01,90.8,12.39
488,tezu,93,IN,1569967254,98,27.93,96.16,67.94,1.41
489,thinadhoo,53,MV,1569967258,80,0.53,72.93,81.98,18.66
490,thompson,40,CA,1569967249,41,55.74,-97.86,42.8,2.24
491,tiksi,99,RU,1569967003,94,71.64,128.87,28.05,16.78
492,tilichiki,32,RU,1569967283,78,60.47,166.1,35.12,14.23
493,timaru,67,NZ,1569967211,70,-44.39,171.25,46.0,3.0
494,todos santos,75,MX,1569967338,40,23.45,-110.23,86.0,8.57
495,torbay,75,CA,1569967290,75,47.66,-52.73,46.99,5.82
496,tornio,0,FI,1569967286,92,61.12,27.27,37.4,2.24
497,tougue,91,GN,1569967242,96,11.45,-11.68,69.77,2.28
498,touros,20,BR,1569967257,78,-5.2,-35.46,77.0,9.17
499,trelew,80,AR,1569967326,55,-43.25,-65.31,42.59,13.15
500,truth or consequences,1,US,1569967279,32,33.13,-107.25,80.6,16.11
501,tual,62,ID,1569967301,85,-5.67,132.75,79.06,18.14
502,tuatapere,100,NZ,1569967244,71,-46.13,167.69,48.0,15.99
503,tuktoyaktuk,90,CA,1569967233,93,69.44,-133.03,41.0,5.82
504,tupiza,32,BO,1569967255,15,-21.44,-65.72,62.23,23.33
505,tura,83,RU,1569967256,81,64.27,100.22,26.75,5.39
506,tureni,0,RO,1569967225,87,46.62,23.7,50.0,4.47
507,tyrma,100,RU,1569967303,98,50.04,132.17,51.74,2.82
508,uhlove,0,UA,1569967306,64,44.82,33.6,63.96,4.12
509,ulkan,0,RU,1569967292,87,57.24,107.32,22.07,3.04
510,umm kaddadah,31,SD,1569967274,56,13.6,26.69,80.57,7.67
511,upata,100,VE,1569967260,78,8.02,-62.41,79.51,6.08
512,upernavik,1,GL,1569967222,66,72.79,-56.15,36.24,11.01
513,uribia,89,CO,1569967325,67,11.71,-72.27,86.6,11.27
514,uruguaiana,76,BR,1569967252,44,-29.77,-57.08,95.0,11.41
515,ushuaia,75,AR,1569967233,72,-54.81,-68.31,41.0,28.86
516,vadso,75,NO,1569967285,80,70.07,29.75,37.4,16.11
517,vagay,94,RU,1569967288,78,57.94,69.02,40.52,9.57
518,vaini,71,IN,1569967214,94,15.34,74.49,74.22,1.3
519,vardo,1,US,1569967244,62,39.62,-77.74,87.8,5.82
520,verkhniye kigi,79,RU,1569967265,75,55.41,58.6,41.67,10.49
521,verkhnyaya maksakovka,90,RU,1569967269,100,61.63,50.97,51.8,8.95
522,vestmannaeyjar,73,IS,1569967269,82,63.44,-20.27,47.56,14.23
523,victoria,75,BN,1569967206,94,5.28,115.24,75.2,3.36
524,vila do maio,61,CV,1569967302,87,15.13,-23.22,76.95,8.5
525,vila franca do campo,40,PT,1569967244,83,37.72,-25.43,73.4,14.99
526,vila velha,0,BR,1569967230,69,-3.71,-38.6,80.6,9.17
527,vilhena,75,BR,1569967258,100,-12.74,-60.15,68.0,12.75
528,viransehir,0,TR,1569967236,31,37.24,39.76,69.84,3.33
529,waddan,0,LY,1569967324,36,29.16,16.14,75.03,9.53
530,waipawa,49,NZ,1569967274,85,-39.94,176.59,48.99,15.99
531,wajid,0,SO,1569967239,64,3.81,43.25,80.14,21.03
532,wakkanai,0,JP,1569967306,92,45.41,141.67,65.02,14.16
533,walvis bay,0,NA,1569967224,72,-22.95,14.51,63.0,9.17
534,wanning,75,AT,1569967320,82,48.64,13.53,60.01,2.24
535,wattegama,3,LK,1569967307,94,7.35,80.68,70.91,1.66
536,weiser,40,US,1569967268,31,44.25,-116.97,60.8,13.87
537,westport,1,US,1569967247,65,41.14,-73.36,79.0,10.29
538,williams lake,75,CA,1569967083,40,52.13,-122.14,51.8,4.7
539,xiongzhou,75,CN,1569967258,94,32.34,118.83,73.99,4.47
540,yaan,35,NG,1569967302,88,7.38,8.57,73.32,2.24
541,yangambi,2,CD,1569967250,90,0.77,24.47,71.1,1.83
542,yar-sale,100,RU,1569967300,95,66.83,70.83,38.72,8.34
543,yarada,100,IN,1569967315,89,17.65,83.27,79.58,12.15
544,yellowknife,40,CA,1569966943,57,62.45,-114.38,50.0,3.36
545,yerbogachen,76,RU,1569967231,85,61.28,108.01,28.07,7.0
546,yulara,100,AU,1569967268,27,-25.24,130.99,62.6,5.82
547,zhigalovo,0,RU,1569967279,95,54.81,105.15,24.3,0.92
548,zhigansk,7,RU,1569967222,85,66.77,123.37,20.7,7.11
549,zhuzhou,0,CN,1569967328,88,27.84,113.15,68.0,4.47
550,ziro,27,IN,1569967290,97,27.54,93.82,53.07,2.21
551,zlatoust,60,RU,1569967291,88,55.17,59.68,36.85,5.19
552,zlitan,0,LY,1569967274,62,32.47,14.57,75.95,4.14
553,zyryanka,58,RU,1569967216,79,65.73,150.89,20.56,11.52
